[{"global_id": 637376403, "Latitude_WGS84": "55.9040863698490400", "ID": "00119365", "Name": "Cotto � �", "IsNetObject": "�", "TypeObject": "�", "AdmArea": "�-� � �", "District": "� �", "Address": "� �, � �, � 9, � 1", "PublicPhone": [{"PublicPhone": "(499) 200-00-22"}], "SeatsCount": 40, "SocialPrivileges": "�", "Longitude_WGS84": "37.5723061316711200", "geoData": {"type": "Point", "coordinates": [37.57230613167112, 55.90408636984904]}}, {"global_id": 1637376403, "Latitude_WGS84": "50.4428539904854400", "ID": "00119365", "Name": "Cotto � �", "IsNetObject": "�", "TypeObject": "�", "AdmArea": "�-� � �", "District": "� �", "Address": "� �, � �, � 9, � 1", "PublicPhone": [{"PublicPhone": "(499) 200-00-22"}], "SeatsCount": 40, "SocialPrivileges": "�", "Longitude_WGS84": "30.51950265845434600", "geoData": {"type": "Point", "coordinates": [30.519502658454346, 50.44285399048544]}}, {"global_id": 637381937, "Latitude_WGS84": "55.7641349597743460", "ID": "00150625", "Name": "One Double Cofe", "IsNetObject": "�", "TypeObject": "�", "AdmArea": "� � �", "District": "� �", "Address": "� �, � � �, � 27/4", "PublicPhone": [{"PublicPhone": "(495) 650-12-43"}], "SeatsCount": 20, "SocialPrivileges": "�", "Longitude_WGS84": "37.6025645395634670", "geoData": {"type": "Point", "coordinates": [37.60256453956347, 55.764134959774346]}}, {"global_id": 637383901, "Latitude_WGS84": "55.7698375543479730", "ID": "00158148", "Name": "� �", "IsNetObject": "�", "TypeObject": "�", "AdmArea": "� � �", "District": "� �", "Address": "� �, � �, � 2, � 1", "PublicPhone": [{"PublicPhone": "(495) 773-23-53"}], "SeatsCount": 10, "SocialPrivileges": "�", "Longitude_WGS84": "37.5857727006965310", "geoData": {"type": "Point", "coordinates": [37.58577270069653, 55.76983755434797]}}, {"global_id": 637387030, "Latitude_WGS84": "55.7596478207301000", "ID": "000074613", "Name": "� �", "IsNetObject": "�", "OperatingCompany": "� �", "TypeObject": "�", "AdmArea": "� � �", "District": "� �", "Address": "� �, � �, � 1", "PublicPhone": [{"PublicPhone": "(495) 221-83-81"}], "SeatsCount": 70, "SocialPrivileges": "�", "Longitude_WGS84": "37.5807967411105000", "geoData": {"type": "Point", "coordinates": [37.5807967411105, 55.7596478207301]}}, {"global_id": 637387499, "Latitude_WGS84": "55.8242625376896270", "ID": "000080355", "Name": "� �", "IsNetObject": "�", "TypeObject": "�", "AdmArea": "�-� � �", "District": "� �", "Address": "� �, � � �, � 10", "PublicPhone": [{"PublicPhone": "(499) 750-22-52"}], "SeatsCount": 38, "SocialPrivileges": "�", "Longitude_WGS84": "37.6531044956220240", "geoData": {"type": "Point", "coordinates": [37.653104495622024, 55.82426253768963]}}, {"global_id": 637390053, "Latitude_WGS84": "55.6079541766888850", "ID": "00124334", "Name": "�, �", "IsNetObject": "�", "TypeObject": "� � �", "AdmArea": "� � �", "District": "� �-� �", "Address": "� �, � �, � 25, � 1", "PublicPhone": [{"PublicPhone": "(968) 334-58-97"}], "SeatsCount": 0, "SocialPrivileges": "�", "Longitude_WGS84": "37.7548428841291250", "geoData": {"type": "Point", "coordinates": [37.754842884129125, 55.607954176688885]}}, {"global_id": 637394149, "Latitude_WGS84": "55.7786413941842060", "ID": "00088745", "Name": "� �", "IsNetObject": "�", "TypeObject": "�", "AdmArea": "� � �", "District": "� �", "Address": "� �, � �, � 39/6", "PublicPhone": [{"PublicPhone": "(926) 624-81-02"}], "SeatsCount": 35, "SocialPrivileges": "�", "Longitude_WGS84": "37.6006323344795210", "geoData": {"type": "Point", "coordinates": [37.60063233447952, 55.778641394184206]}}, {"global_id": 637397027, "Latitude_WGS84": "55.7278577492519820", "ID": "00120271", "Name": "�", "IsNetObject": "�", "OperatingCompany": "�", "TypeObject": "�", "AdmArea": "� � �", "District": "� �", "Address": "� �, � �, � 21, � 2", "PublicPhone": [{"PublicPhone": "(499) 246-17-21"}], "SeatsCount": 45, "SocialPrivileges": "�", "Longitude_WGS84": "37.5840080000000110", "geoData": {"type": "Point", "coordinates": [37.58400800000001, 55.72785774925198]}}, {"global_id": 637400931, "Latitude_WGS84": "55.7465883331539000", "ID": "000069884", "Name": "�", "IsNetObject": "�", "OperatingCompany": "�", "TypeObject": "�", "AdmArea": "� � �", "District": "� �", "Address": "� �, � �, � 17", "PublicPhone": [{"PublicPhone": "(495) 781-16-90"}], "SeatsCount": 60, "SocialPrivileges": "�", "Longitude_WGS84": "37.5568053283650000", "geoData": {"type": "Point", "coordinates": [37.556805328365, 55.7465883331539]}}, {"global_id": 637401065, "Latitude_WGS84": "55.7409314616814000", "ID": "000021780", "Name": "� �", "IsNetObject": "�", "OperatingCompany": "� �", "TypeObject": "�", "AdmArea": "� � �", "District": "� �", "Address": "� �, � �, � 30", "PublicPhone": [{"PublicPhone": "(495) 956-85-86"}], "SeatsCount": 50, "SocialPrivileges": "�", "Longitude_WGS84": "37.5360372088986000", "geoData": {"type": "Point", "coordinates": [37.5360372088986, 55.7409314616814]}}, {"global_id": 637401874, "Latitude_WGS84": "55.7985985819297000", "ID": "000025606", "Name": "�-�", "IsNetObject": "�", "OperatingCompany": "�-�", "TypeObject": "�", "AdmArea": "� � �", "District": "� �", "Address": "� �, � �, � 56", "PublicPhone": [{"PublicPhone": "(499) 151-47-49"}], "SeatsCount": 41, "SocialPrivileges": "�", "Longitude_WGS84": "37.5376990066557000", "geoData": {"type": "Point", "coordinates": [37.5376990066557, 55.7985985819297]}}, {"global_id": 637402143, "Latitude_WGS84": "55.8052032583400010", "ID": "00100556", "Name": "� �", "IsNetObject": "�", "OperatingCompany": "� �", "TypeObject": "�", "AdmArea": "� � �", "District": "� �", "Address": "� �, � �, � 74, � 1", "PublicPhone": [{"PublicPhone": "(909) 952-94-19"}], "SeatsCount": 98, "SocialPrivileges": "�", "Longitude_WGS84": "37.5165682858082620", "geoData": {"type": "Point", "coordinates": [37.51656828580826, 55.80520325834]}}, {"global_id": 637407294, "Latitude_WGS84": "55.7297435112049730", "ID": "00149220", "Name": "� �", "IsNetObject": "�", "OperatingCompany": "� �", "TypeObject": "�", "AdmArea": "� � �", "District": "� �", "Address": "� �, � �, � 1�, � 1", "PublicPhone": [{"PublicPhone": "(495) 916-56-16"}], "SeatsCount": 0, "SocialPrivileges": "�", "Longitude_WGS84": "37.6395321326059720", "geoData": {"type": "Point", "coordinates": [37.63953213260597, 55.72974351120497]}}, {"global_id": 637407892, "Latitude_WGS84": "55.7092603796093750", "ID": "00134332", "Name": "� �", "IsNetObject": "�", "OperatingCompany": "�", "TypeObject": "�", "AdmArea": "� � �", "District": "� �", "Address": "� �, � �, � 37�", "PublicPhone": [{"PublicPhone": "(495) 952-33-98"}], "SeatsCount": 43, "SocialPrivileges": "�", "Longitude_WGS84": "37.5857751327422920", "geoData": {"type": "Point", "coordinates": [37.58577513274229, 55.709260379609375]}}, {"global_id": 637410208, "Latitude_WGS84": "55.7564897133747480", "ID": "00150172", "Name": "� �Smoothien & coffee�", "IsNetObject": "�", "TypeObject": "�", "AdmArea": "� � �", "District": "� �", "Address": "� �, � �, � 18", "PublicPhone": [{"PublicPhone": "(495) 227-37-14"}], "SeatsCount": 20, "SocialPrivileges": "�", "Longitude_WGS84": "37.5515677458180690", "geoData": {"type": "Point", "coordinates": [37.55156774581807, 55.75648971337475]}}, {"global_id": 637410821, "Latitude_WGS84": "55.7913579534609600", "ID": "00087612", "Name": "�D� �", "IsNetObject": "�", "OperatingCompany": "�D� �", "TypeObject": "�", "AdmArea": "� � �", "District": "� �", "Address": "� �, � � �, � 5, � 1", "PublicPhone": [{"PublicPhone": "(926) 079-05-90"}], "SeatsCount": 8, "SocialPrivileges": "�", "Longitude_WGS84": "37.5842763845416170", "geoData": {"type": "Point", "coordinates": [37.58427638454162, 55.79135795346096]}}, {"global_id": 637415807, "Latitude_WGS84": "55.7566805736932810", "ID": "00129861", "Name": "� �Coffee Bean�", "IsNetObject": "�", "TypeObject": "�", "AdmArea": "� � �", "District": "� �", "Address": "� �, � �, � 2/14, � 6", "PublicPhone": [{"PublicPhone": "(495) 629-85-37"}], "SeatsCount": 56, "SocialPrivileges": "�", "Longitude_WGS84": "37.6057655539760700", "geoData": {"type": "Point", "coordinates": [37.60576555397607, 55.75668057369328]}}, {"global_id": 637417514, "Latitude_WGS84": "55.7870143750042400", "ID": "00126484", "Name": "�", "IsNetObject": "�", "OperatingCompany": "�", "TypeObject": "�", "AdmArea": "� � �", "District": "� �", "Address": "� �, � �, � 50/1, � 2", "PublicPhone": [{"PublicPhone": "(915) 389-48-49"}], "SeatsCount": 15, "SocialPrivileges": "�", "Longitude_WGS84": "37.5943969560627660", "geoData": {"type": "Point", "coordinates": [37.594396956062766, 55.78701437500424]}}, {"global_id": 637418937, "Latitude_WGS84": "55.7419068353446930", "ID": "00134362", "Name": "Travelers Coffee", "IsNetObject": "�", "OperatingCompany": "Travelers Coffee", "TypeObject": "�", "AdmArea": "� � �", "District": "� �", "Address": "� �, � �, � 14/2", "PublicPhone": [{"PublicPhone": "(495) 695-00-60"}], "SeatsCount": 27, "SocialPrivileges": "�", "Longitude_WGS84": "37.5988693776710930", "geoData": {"type": "Point", "coordinates": [37.59886937767109, 55.74190683534469]}}, {"global_id": 637421125, "Latitude_WGS84": "55.7937152690893040", "ID": "00142794", "Name": "� Fresh bar", "IsNetObject": "�", "TypeObject": "� � �", "AdmArea": "� � �", "District": "� � �", "Address": "� �, � �, � 105", "PublicPhone": [{"PublicPhone": "(977) 281-45-37"}], "SeatsCount": 0, "SocialPrivileges": "�", "Longitude_WGS84": "37.8099110330272270", "geoData": {"type": "Point", "coordinates": [37.80991103302723, 55.793715269089304]}}, {"global_id": 637423121, "Latitude_WGS84": "55.7582578106435420", "ID": "00156679", "Name": "Cezve Coffee", "IsNetObject": "�", "TypeObject": "�", "AdmArea": "� � �", "District": "� �", "Address": "� �, � �, � 8, � 2", "PublicPhone": [{"PublicPhone": "(499) 404-06-02"}], "SeatsCount": 20, "SocialPrivileges": "�", "Longitude_WGS84": "37.6500249176762050", "geoData": {"type": "Point", "coordinates": [37.650024917676205, 55.75825781064354]}}]
